{
	"buildings": [
		{
			"id": "1",
			"location": "loc. 1",
			"name": "Quadrangle Building",
			"address": "National University of Ireland Galway, Galway",
			"lat": "53.277737",
			"lng": "-9.062452",
			"img": "C:3rd YearProPracticeITsrcassetsimgsQuadrangle.tif"
		},
		{
			"id": "2",
			"location": "loc. 2",
			"name": "Cathedral of Our Lady Assumed into Heaven and St. Nicholas?",
			"address": "Galway Cathedral, Galway",
			"lat": "53.275234",
			"lng": "-9.057390",
			"img": "C:3rd YearProPracticeITsrcassetsimgsQuadrangle.tif"
		},
		{
			"id": "3",
			"location": "loc. 3",
			"name": "Claddagh Church",
			"address": "Claddagh Quay, Galway",
			"lat": "53.268620",
			"lng": "-9.055723",
			"img": "C:3rd YearProPracticeITsrcassetsimgsQuadrangle.tif"
		},
		{
			"id": "4",
			"location": "loc. 4",
			"name": "Hall of the Red Earl",
			"address": "Hall of the Red Earl, Druid Lane, Galway",
			"lat": "53.271019",
			"lng": "-9.053529",
			"img": "C:3rd YearProPracticeITsrcassetsimgsQuadrangle.tif"
		},
		{
			"id": "5",
			"location": "loc. 5",
			"name": "Spanish Parade",
			"address": "Spanish Parade, Galway",
			"lat": "53.269958",
			"lng": "-9.053285",
			"img": "C:3rd YearProPracticeITsrcassetsimgsQuadrangle.tif"
		},
		{
			"id": "6",
			"location": "loc. 6",
			"name": "St. Nicholas? Collegiate Church",
			"address": "7 Lombard St, Galway",
			"lat": "53.272728",
			"lng": "-9.053925",
			"img": "C:3rd YearProPracticeITsrcassetsimgsQuadrangle.tif"
		},
		{
			"id": "7",
			"location": "loc. 7",
			"name": "McCambridge?s Of Galway",
			"address": "38-39 Shop St, Galway",
			"lat": "53.273029",
			"lng": "-9.052312",
			"img": "C:3rd YearProPracticeITsrcassetsimgsQuadrangle.tif"
		},
		{
			"id": "8",
			"location": "loc. 8",
			"name": "Lynch?s Castle",
			"address": "Shop Street Abbeygate Street, Galway",
			"lat": "53.273170",
			"lng": "-9.052288",
			"img": "C:3rd YearProPracticeITsrcassetsimgsQuadrangle.tif"
		},
		{
			"id": "9",
			"location": "loc. 9",
			"name": "Hotel Meyrick",
			"address": "Eyre Square, Galway",
			"lat": "53.273987",
			"lng": "-9.040000",
			"img": "C:3rd YearProPracticeITsrcassetsimgsQuadrangle.tif"
		},
		{
			"id": "10",
			"location": "loc.10",
			"name": "Ulster Bank",
			"address": "33 Eyre Square, Galway",
			"lat": "53.274517",
			"lng": "-9.050818",
			"img": "C:3rd YearProPracticeITsrcassetsimgsQuadrangle.tif"
		}
	]
}
